地點名稱,Latitude_觀者,Longitude_觀者,Latitude_景,Longitude_景,現在照片(檔名),老照片(檔名),地點詳述
校門口,24.7894363,121.0001685,24.7893836,120.9999609,02_new,02_old,2003年，交通大學展開「南北校門新建」，北大門為學校對外重要之出入孔道，但因週邊土地產權限制，因此老舊之北大門急需改善。另為配合西區校地開發，將校園主要出入口移至新南大門，因此對南北大門進行整體改造。本次改造有三個重點：整體景觀美化、警衛亭與夜間照明，北大門為一大陡坡，南大門則無圍牆。另外，不但以植栽美化環境，更以鋼骨及玻璃材質作為警衛室，而夜晚還有夜間照明，展現出迥異於白晝之風采
竹軒,24.7891075,120.9981833,24.7896,120.998313,03_new,03_old,竹軒為大學部新生女生宿舍，從2016年開始展開更新計畫，先是更新B1至1樓的交誼廳、廚房、讀書室、庭園，再來是新設洗衣房、111間寢室床組、冷氣、衛浴更新工程。原本看起來老舊的深木頭色床組都換成淺色系，一長排的書桌和上下鋪的床，變成上鋪是床下舖是書桌的高架床，有更多個人空間。
二餐斜坡,24.789481,120.9976308,24.789288,120.997217,04_new,04_old,第二餐廳全新裝潢的以仿清水模斑駁的紋路工法，搭配木紋色系，塑造出時尚又具文青質感的意象，便利商店則以「木磚網美牆」作為隔飾牆，吸引許多學生拍照、合影留下青春印記，餐廳也提供多元餐點，包含各式飲品、蛋糕的「85度C」咖啡、學生最愛的「姐妹雞腿」、供應麵食類的「二弄堂」，其他茶飲、早午餐、素食料理也一應俱全。美式潛艇堡Subway也在11月加入服務行列。除了用餐空間，餐廳內也規畫閱讀區及研討會議室供同學使用，打造多功能的複合式環境，讓學生吃飯、讀書、分組討論，所有需求一次滿足。
竹湖晨風,24.7890552,121.0001567,24.7887018,121.0002905,05_new,05_old,1978年整建光復校區時，便計畫在之中設立人工湖。隔年竣工，並命名「竹湖」，以紀念前校長淩鴻勛（字竹銘）。竹湖為交大的象徵，也是附近居民平時散步的好場所，交大的學生也時常在竹湖附近約會，而竹湖音近似「竹狐」，因此梅竹賽交通大學的吉祥物為「狐」（而清大的吉祥物為熊貓，因為其主食為「竹子」）。竹湖同時也被選為新竹市的新八景之一。(這些是維基百科的資料!!!)
竹湖1,24.7889109,121.0004997,24.7887018,121.0002905,06_new,06_old,1978年整建光復校區時，便計畫在之中設立人工湖。隔年竣工，並命名「竹湖」，以紀念前校長淩鴻勛（字竹銘）。竹湖為交大的象徵，也是附近居民平時散步的好場所，交大的學生也時常在竹湖附近約會，而竹湖音近似「竹狐」，因此梅竹賽交通大學的吉祥物為「狐」（而清大的吉祥物為熊貓，因為其主食為「竹子」）。竹湖同時也被選為新竹市的新八景之一。(這些是維基百科的資料!!!)
竹湖2,24.7885797,121.0010362,24.7887018,121.0002905,07_new,07_old,1978年整建光復校區時，便計畫在之中設立人工湖。隔年竣工，並命名「竹湖」，以紀念前校長淩鴻勛（字竹銘）。竹湖為交大的象徵，也是附近居民平時散步的好場所，交大的學生也時常在竹湖附近約會，而竹湖音近似「竹狐」，因此梅竹賽交通大學的吉祥物為「狐」（而清大的吉祥物為熊貓，因為其主食為「竹子」）。竹湖同時也被選為新竹市的新八景之一。(這些是維基百科的資料!!!)
浩然圖書館-裝置藝術1,24.786958,120.997785,24.786345,120.9978336,08_new,08_old,每年畢業季，在浩然圖書館與棋盤廣場之間的場地都會設有”NCTU”英文校名縮寫的裝置藝術，每年呈現的形式不盡相同，配合著每年獨特的畢業主題及氣氛，每屆的畢業生都能享受到不同的畢業氣氛。2018年配合著”Be the Light of the World”的校園裝置與「光」的畢業主題，於浩然圖書館前的階梯設置了大大的”I ❤️NCTU”，愛心中還有60的字樣，此為交大在台創校60週年之象徵，0做成齒輪的形象，呼應交通大學校徽的齒輪，一同歡慶迎接交大在台的第60年。
浩然圖書館-裝置藝術2,24.7867145,120.9978145,24.7872176,120.9979131,09_new,09_old,2016年的畢業季裝置藝術是由許多小風車於棋盤廣場前的草地，拍成NCTU的字樣，隨著新竹的風吹動著草地上整群的小風車，迎風轉動的風車葉片如同畢業生們迎向未來的雙翼，彷彿象徵著對未來的希望與期盼。